{"type": "FeatureCollection", "features": [{"type": "Feature", "geometry": {"type": "Point", "coordinates": [71.4566518, 20.8876424]}, "properties": {"name": "Bhakudar", "code": 0}}, {"type": "Feature", "geometry": {"type": "Point", "coordinates": [72.9958748, 21.7051358]}, "properties": {"name": "Bharuch", "code": 1}}, {"type": "Feature", "geometry": {"type": "Point", "coordinates": [74.3000878, 23.0513524]}, "properties": {"name": "Chakaliya", "code": 2}}, {"type": "Feature", "geometry": {"type": "Point", "coordinates": [72.483507, 24.26778]}, "properties": {"name": "Chitrasani", "code": 3}}, {"type": "Feature", "geometry": {"type": "Point", "coordinates": [73.0361003, 21.2976178]}, "properties": {"name": "GHALA", "code": 4}}, {"type": "Feature", "geometry": {"type": "Point", "coordinates": [70.1835607, 21.6709803]}, "properties": {"name": "Ganod", "code": 5}}, {"type": "Feature", "geometry": {"type": "Point", "coordinates": [73.65214929999999, 21.8923859]}, "properties": {"name": "Garudeshwar", "code": 6}}, {"type": "Feature", "geometry": {"type": "Point", "coordinates": [70.80010279999999, 22.9548427]}, "properties": {"name": "Gungan", "code": 7}}, {"type": "Feature", "geometry": {"type": "Point", "coordinates": [73.128322, 24.0206848]}, "properties": {"name": "Harnav Weir", "code": 8}}, {"type": "Feature", "geometry": {"type": "Point", "coordinates": [72.94307300000001, 23.6233284]}, "properties": {"name": "Hathmati Weir", "code": 9}}, {"type": "Feature", "geometry": {"type": "Point", "coordinates": [73.8255487, 23.3057915]}, "properties": {"name": "Kadana Dam", "code": 10}}, {"type": "Feature", "geometry": {"type": "Point", "coordinates": [71.8393443, 23.0411011]}, "properties": {"name": "Kamalpur", "code": 11}}, {"type": "Feature", "geometry": {"type": "Point", "coordinates": [73.6815807, 23.2838658]}, "properties": {"name": "Khanpur", "code": 12}}, {"type": "Feature", "geometry": {"type": "Point", "coordinates": [73.2301014, 22.4347283]}, "properties": {"name": "Lowara", "code": 13}}, {"type": "Feature", "geometry": {"type": "Point", "coordinates": [73.06006909999999, 20.194667]}, "properties": {"name": "MADHUBAN DAM", "code": 14}}, {"type": "Feature", "geometry": {"type": "Point", "coordinates": [73.2794846, 20.2037491]}, "properties": {"name": "NANIPALSAN", "code": 15}}, {"type": "Feature", "geometry": {"type": "Point", "coordinates": [73.7166953, 23.0544619]}, "properties": {"name": "Panam Dam", "code": 16}}, {"type": "Feature", "geometry": {"type": "Point", "coordinates": [73.2617928, 22.2581955]}, "properties": {"name": "Ratanpur", "code": 17}}, {"type": "Feature", "geometry": {"type": "Point", "coordinates": [71.1923805, 22.258652]}, "properties": {"name": "Sarotry", "code": 18}}, {"type": "Feature", "geometry": {"type": "Point", "coordinates": [72.5859378, 23.0610565]}, "properties": {"name": "Subhash Bridge", "code": 19}}, {"type": "Feature", "geometry": {"type": "Point", "coordinates": [72.83106070000001, 21.1702401]}, "properties": {"name": "Surat", "code": 20}}, {"type": "Feature", "geometry": {"type": "Point", "coordinates": [73.5785523, 21.2341558]}, "properties": {"name": "Ukai Dam", "code": 21}}, {"type": "Feature", "geometry": {"type": "Point", "coordinates": [71.0408624, 20.8234992]}, "properties": {"name": "Una", "code": 22}}, {"type": "Feature", "geometry": {"type": "Point", "coordinates": [72.9106202, 20.3893155]}, "properties": {"name": "VAPI", "code": 23}}, {"type": "Feature", "geometry": {"type": "Point", "coordinates": [72.53785959999999, 22.6602061]}, "properties": {"name": "Vautha", "code": 24}}, {"type": "Feature", "geometry": {"type": "Point", "coordinates": [73.3587646, 22.8766055]}, "properties": {"name": "Wanakbori", "code": 25}}, {"type": "Feature", "geometry": {"type": "Point", "coordinates": [73.040221, 23.0454563]}, "properties": {"name": "Watrak Dam", "code": 26}}]}