{"type": "FeatureCollection", "features": [{"type": "Feature", "geometry": {"type": "Point", "coordinates": [77.4430816, 32.0005882]}, "properties": {"name": "Barshani", "code": 0}}, {"type": "Feature", "geometry": {"type": "Point", "coordinates": [76.2129439, 31.5165806]}, "properties": {"name": "Ghaluwal", "code": 1}}, {"type": "Feature", "geometry": {"type": "Point", "coordinates": [76.97530739999999, 30.8786624]}, "properties": {"name": "Hanuman Chetty", "code": 2}}, {"type": "Feature", "geometry": {"type": "Point", "coordinates": [77.17339009999999, 31.1048294]}, "properties": {"name": "Jateon Barrage", "code": 3}}, {"type": "Feature", "geometry": {"type": "Point", "coordinates": [77.19021219999999, 32.3146585]}, "properties": {"name": "KOTHI", "code": 4}}, {"type": "Feature", "geometry": {"type": "Point", "coordinates": [78.6434199, 31.7990301]}, "properties": {"name": "Khab", "code": 5}}, {"type": "Feature", "geometry": {"type": "Point", "coordinates": [78.4496168, 31.6007996]}, "properties": {"name": "MOORANG", "code": 6}}, {"type": "Feature", "geometry": {"type": "Point", "coordinates": [77.9674406, 31.5734653]}, "properties": {"name": "NATHPA", "code": 7}}, {"type": "Feature", "geometry": {"type": "Point", "coordinates": [77.3083904, 31.2733089]}, "properties": {"name": "PANDOA", "code": 8}}, {"type": "Feature", "geometry": {"type": "Point", "coordinates": [78.2718187, 31.5211456]}, "properties": {"name": "POWARI", "code": 9}}, {"type": "Feature", "geometry": {"type": "Point", "coordinates": [77.60205690000001, 30.445283]}, "properties": {"name": "Paonta", "code": 10}}, {"type": "Feature", "geometry": {"type": "Point", "coordinates": [77.6298122, 31.4492451]}, "properties": {"name": "RAMPUR(Shimla)", "code": 11}}, {"type": "Feature", "geometry": {"type": "Point", "coordinates": [77.4020919, 31.2328548]}, "properties": {"name": "Ropa", "code": 12}}, {"type": "Feature", "geometry": {"type": "Point", "coordinates": [78.26499559999999, 31.4254859]}, "properties": {"name": "Sangla", "code": 13}}, {"type": "Feature", "geometry": {"type": "Point", "coordinates": [77.17339009999999, 31.1048294]}, "properties": {"name": "Shalkhar", "code": 14}}, {"type": "Feature", "geometry": {"type": "Point", "coordinates": [77.1055883, 30.9075316]}, "properties": {"name": "TITANG", "code": 15}}, {"type": "Feature", "geometry": {"type": "Point", "coordinates": [77.210336, 30.8919211]}, "properties": {"name": "Yaswant Nagar", "code": 16}}]}