[{"lat": 12.9191198, "lon": 74.9530257, "name": "ADDOOR", "code": 0}, {"lat": 12.6226975, "lon": 76.3897733, "name": "AKKIHEBBAL", "code": 1}, {"lat": 15.3172775, "lon": 75.7138884, "name": "AVERSHE", "code": 2}, {"lat": 16.3245383, "lon": 75.8888705, "name": "Almatti Dam", "code": 3}, {"lat": 12.886995, "lon": 75.0260667, "name": "BANTWAL", "code": 4}, {"lat": 12.5285658, "lon": 76.9455815, "name": "BELUR", "code": 5}, {"lat": 14.4354229, "lon": 75.78075249999999, "name": "BYALADAHALLI", "code": 6}, {"lat": 13.7, "lon": 75.64, "name": "Bhadra Dam", "code": 7}, {"lat": 13.315258, "lon": 75.7754018, "name": "CHIKKAMALUR", "code": 8}, {"lat": 12.5114065, "lon": 77.0398951, "name": "CHIKKARASINAKERE", "code": 9}, {"lat": 12.5020648, "lon": 76.29352670000002, "name": "CHUNCHUNAKATTE", "code": 10}, {"lat": 15.8793058, "lon": 75.70952659999999, "name": "Cholachguda", "code": 11}, {"lat": 15.3172775, "lon": 75.7138884, "name": "Deongaon Bridge", "code": 12}, {"lat": 16.3689824, "lon": 77.3611549, "name": "Deosugur", "code": 13}, {"lat": 16.192405, "lon": 74.7768622, "name": "Gokak Falls", "code": 14}, {"lat": 13.5761497, "lon": 74.8653331, "name": "HALADI", "code": 15}, {"lat": 13.9862338, "lon": 75.6920782, "name": "HOLEHONNUR", "code": 16}, {"lat": 12.1212982, "lon": 76.4715171, "name": "HOMMARAGALLI", "code": 17}, {"lat": 13.9843107, "lon": 76.75601549999999, "name": "HOOVINAHOLE", "code": 18}, {"lat": 14.3324313, "lon": 75.7800259, "name": "Haralahalli", "code": 19}, {"lat": 12.491667, "lon": 75.90555599999999, "name": "Harangi Dam", "code": 20}, {"lat": 12.821844, "lon": 76.0542431, "name": "Hemavathi Dam", "code": 21}, {"lat": 16.1462048, "lon": 74.642605, "name": "Hidkal Dam", "code": 22}, {"lat": 16.5533295, "lon": 75.16774889999999, "name": "Hipparagi Barrage", "code": 23}, {"lat": 14.2342499, "lon": 75.6469934, "name": "Honnali", "code": 24}, {"lat": 15.0199533, "lon": 75.93180799999999, "name": "Huvinhedigi", "code": 25}, {"lat": 12.31, "lon": 76.28999999999999, "name": "K.M. VADI", "code": 26}, {"lat": 13.7557872, "lon": 76.3138532, "name": "KELLODU", "code": 27}, {"lat": 15.3172775, "lon": 75.7138884, "name": "KOKKEDODDY", "code": 28}, {"lat": 12.1536786, "lon": 77.11112140000002, "name": "KOLLEGAL", "code": 29}, {"lat": 12.4918705, "lon": 75.9506785, "name": "KUDIGE", "code": 30}, {"lat": 13.6549785, "lon": 75.95213, "name": "KUDLUR", "code": 31}, {"lat": 14.4867873, "lon": 75.612786, "name": "KUPPELUR", "code": 32}, {"lat": 11.9735263, "lon": 76.3527562, "name": "Kabini Dam", "code": 33}, {"lat": 15.3172775, "lon": 75.7138884, "name": "Kokangaon", "code": 34}, {"lat": 12.4254763, "lon": 76.5724381, "name": "Krishna Raja Sagar", "code": 35}, {"lat": 12.8295582, "lon": 76.1394127, "name": "M.H. HALLI", "code": 36}, {"lat": 16.1593965, "lon": 74.7915804, "name": "Malaprabha Dam", "code": 37}, {"lat": 14.9353572, "lon": 75.6200813, "name": "Marol", "code": 38}, {"lat": 14.1876343, "lon": 77.3687951, "name": "Nagalamedike", "code": 39}, {"lat": 16.2121455, "lon": 76.3347838, "name": "Narayanpur Dam", "code": 40}, {"lat": 14.7633679, "lon": 75.31279289999999, "name": "Oollenur", "code": 41}, {"lat": 12.0677547, "lon": 77.4137161, "name": "PUDUNAGARA", "code": 42}, {"lat": 12.9441511, "lon": 75.78656529999999, "name": "SAKLESHPUR", "code": 43}, {"lat": 13.1711137, "lon": 74.9968543, "name": "SANOOR", "code": 44}, {"lat": 14.4260232, "lon": 74.5792807, "name": "SANTEGULI", "code": 45}, {"lat": 16.5533172, "lon": 74.5316807, "name": "Sadalga (Seasonal)", "code": 46}, {"lat": 18.0629236, "lon": 77.1125079, "name": "Saigaon", "code": 47}, {"lat": 13.9299299, "lon": 75.568101, "name": "Shimoga", "code": 48}, {"lat": 18.9342011, "lon": 73.1379109, "name": "Shirdhon", "code": 49}, {"lat": 12.5079582, "lon": 77.4350668, "name": "T. BEKKUPE", "code": 50}, {"lat": 12.2110225, "lon": 76.9038011, "name": "T. NARASIPUR", "code": 51}, {"lat": 15.3172775, "lon": 75.7138884, "name": "T. Ramapuram", "code": 52}, {"lat": 12.4117702, "lon": 77.20171189999999, "name": "T.K.HALLI", "code": 53}, {"lat": 13.5472536, "lon": 76.6585978, "name": "THIMMANAHALLI", "code": 54}, {"lat": 15.3, "lon": 76.333333, "name": "Tungabhadra Dam", "code": 55}, {"lat": 13.641699, "lon": 75.3992286, "name": "Upper Tunga Prject", "code": 56}, {"lat": 13.2963556, "lon": 74.9848026, "name": "YENNEHOLE", "code": 57}, {"lat": 16.7601963, "lon": 77.142764, "name": "Yadgir", "code": 58}]