{"type": "FeatureCollection", "features": [{"type": "Feature", "geometry": {"type": "Point", "coordinates": [73.51523809999999, 16.9480623]}, "properties": {"name": "Anjanari", "code": 0}}, {"type": "Feature", "geometry": {"type": "Point", "coordinates": [74.6268676, 16.7798306]}, "properties": {"name": "Arjunwad (Seasonal)", "code": 1}}, {"type": "Feature", "geometry": {"type": "Point", "coordinates": [75.1680394, 18.8043913]}, "properties": {"name": "Ashti", "code": 2}}, {"type": "Feature", "geometry": {"type": "Point", "coordinates": [73.2367896, 19.1667854]}, "properties": {"name": "Badlapur", "code": 3}}, {"type": "Feature", "geometry": {"type": "Point", "coordinates": [79.3634517, 19.8390022]}, "properties": {"name": "Balharsha", "code": 4}}, {"type": "Feature", "geometry": {"type": "Point", "coordinates": [79.37612179999999, 19.8382919]}, "properties": {"name": "Bamni (Balharsha)", "code": 5}}, {"type": "Feature", "geometry": {"type": "Point", "coordinates": [73.59522, 16.2214624]}, "properties": {"name": "Belne Bridge", "code": 6}}, {"type": "Feature", "geometry": {"type": "Point", "coordinates": [77.5332796, 18.703412]}, "properties": {"name": "Betmogra", "code": 7}}, {"type": "Feature", "geometry": {"type": "Point", "coordinates": [79.6558242, 21.1750113]}, "properties": {"name": "Bhandara", "code": 8}}, {"type": "Feature", "geometry": {"type": "Point", "coordinates": [76.2652909, 20.3490978]}, "properties": {"name": "Chikhali", "code": 9}}, {"type": "Feature", "geometry": {"type": "Point", "coordinates": [77.57627029999999, 18.5458672]}, "properties": {"name": "Degloor", "code": 10}}, {"type": "Feature", "geometry": {"type": "Point", "coordinates": [76.36806960000001, 19.2250766]}, "properties": {"name": "Dhalegaon", "code": 11}}, {"type": "Feature", "geometry": {"type": "Point", "coordinates": [79.0585802, 21.1372657]}, "properties": {"name": "Dharna Dam (State Govt. Site)", "code": 12}}, {"type": "Feature", "geometry": {"type": "Point", "coordinates": [75.30914829999999, 18.6479789]}, "properties": {"name": "Dhond", "code": 13}}, {"type": "Feature", "geometry": {"type": "Point", "coordinates": [75.7138884, 19.7514798]}, "properties": {"name": "G.R.BRIDGE", "code": 14}}, {"type": "Feature", "geometry": {"type": "Point", "coordinates": [74.8180521, 21.295472]}, "properties": {"name": "GIDHADE", "code": 15}}, {"type": "Feature", "geometry": {"type": "Point", "coordinates": [75.4238661, 20.8326437]}, "properties": {"name": "GIRNA DAM", "code": 16}}, {"type": "Feature", "geometry": {"type": "Point", "coordinates": [76.9844677, 20.8755857]}, "properties": {"name": "GOPALKHEDA", "code": 17}}, {"type": "Feature", "geometry": {"type": "Point", "coordinates": [76.75566970000001, 18.9737849]}, "properties": {"name": "Gangakhed W/L Station", "code": 18}}, {"type": "Feature", "geometry": {"type": "Point", "coordinates": [73.6798096, 20.0481104]}, "properties": {"name": "Gangapur Dam ( State Govt. )", "code": 19}}, {"type": "Feature", "geometry": {"type": "Point", "coordinates": [79.1153367, 19.941447]}, "properties": {"name": "Ghugus", "code": 20}}, {"type": "Feature", "geometry": {"type": "Point", "coordinates": [79.613362, 20.8760771]}, "properties": {"name": "Gosikhurd Dam", "code": 21}}, {"type": "Feature", "geometry": {"type": "Point", "coordinates": [75.9260011, 21.0473209]}, "properties": {"name": "HATHNUR", "code": 22}}, {"type": "Feature", "geometry": {"type": "Point", "coordinates": [75.53640419999999, 19.8503743]}, "properties": {"name": "Hivra", "code": 23}}, {"type": "Feature", "geometry": {"type": "Point", "coordinates": [75.37341230000001, 19.4837111]}, "properties": {"name": "Jaikwadi Dam", "code": 24}}, {"type": "Feature", "geometry": {"type": "Point", "coordinates": [74.59056400000001, 16.6809131]}, "properties": {"name": "KURUNDWAD", "code": 25}}, {"type": "Feature", "geometry": {"type": "Point", "coordinates": [77.14707829999999, 19.9567256]}, "properties": {"name": "Kanhargaon", "code": 26}}, {"type": "Feature", "geometry": {"type": "Point", "coordinates": [74.20032309999999, 17.2759841]}, "properties": {"name": "Karad", "code": 27}}, {"type": "Feature", "geometry": {"type": "Point", "coordinates": [74.47908980000001, 19.8916791]}, "properties": {"name": "Kopergaon", "code": 28}}, {"type": "Feature", "geometry": {"type": "Point", "coordinates": [73.75035989999999, 17.4009594]}, "properties": {"name": "Koyna Dam", "code": 29}}, {"type": "Feature", "geometry": {"type": "Point", "coordinates": [75.0114612, 19.9282261]}, "properties": {"name": "Lasur", "code": 30}}, {"type": "Feature", "geometry": {"type": "Point", "coordinates": [73.42244099999999, 18.0820208]}, "properties": {"name": "Mahad", "code": 31}}, {"type": "Feature", "geometry": {"type": "Point", "coordinates": [73.281696, 18.2382428]}, "properties": {"name": "Mangaon", "code": 32}}, {"type": "Feature", "geometry": {"type": "Point", "coordinates": [75.6499025, 20.3571701]}, "properties": {"name": "Mangrul", "code": 33}}, {"type": "Feature", "geometry": {"type": "Point", "coordinates": [75.7138884, 19.7514798]}, "properties": {"name": "Mirdapalli", "code": 34}}, {"type": "Feature", "geometry": {"type": "Point", "coordinates": [75.7138884, 19.7514798]}, "properties": {"name": "NMD-Weir", "code": 35}}, {"type": "Feature", "geometry": {"type": "Point", "coordinates": [73.13643569999999, 18.5446161]}, "properties": {"name": "Nagothane", "code": 36}}, {"type": "Feature", "geometry": {"type": "Point", "coordinates": [77.3209555, 19.1382514]}, "properties": {"name": "Nanded", "code": 37}}, {"type": "Feature", "geometry": {"type": "Point", "coordinates": [74.66053649999999, 20.3094959]}, "properties": {"name": "Nandgaon", "code": 38}}, {"type": "Feature", "geometry": {"type": "Point", "coordinates": [75.1165915, 17.9849208]}, "properties": {"name": "Narsingpur", "code": 39}}, {"type": "Feature", "geometry": {"type": "Point", "coordinates": [73.78980229999999, 19.9974533]}, "properties": {"name": "Nasik", "code": 40}}, {"type": "Feature", "geometry": {"type": "Point", "coordinates": [73.8738825, 20.2761457]}, "properties": {"name": "OZERKHEDA", "code": 41}}, {"type": "Feature", "geometry": {"type": "Point", "coordinates": [72.871729, 19.173398]}, "properties": {"name": "P.G. Bridge", "code": 42}}, {"type": "Feature", "geometry": {"type": "Point", "coordinates": [74.8353607, 19.5440926]}, "properties": {"name": "Pachegaon", "code": 43}}, {"type": "Feature", "geometry": {"type": "Point", "coordinates": [73.8713099, 20.1880642]}, "properties": {"name": "Palkhed", "code": 44}}, {"type": "Feature", "geometry": {"type": "Point", "coordinates": [74.3733092, 18.5600735]}, "properties": {"name": "Paragaon", "code": 45}}, {"type": "Feature", "geometry": {"type": "Point", "coordinates": [79.6368375, 20.7938803]}, "properties": {"name": "Pauni", "code": 46}}, {"type": "Feature", "geometry": {"type": "Point", "coordinates": [73.0946926, 18.7357931]}, "properties": {"name": "Pen", "code": 47}}, {"type": "Feature", "geometry": {"type": "Point", "coordinates": [74.0153231, 18.656031]}, "properties": {"name": "Phulgaon", "code": 48}}, {"type": "Feature", "geometry": {"type": "Point", "coordinates": [77.03053899999999, 19.1790258]}, "properties": {"name": "Purrna", "code": 49}}, {"type": "Feature", "geometry": {"type": "Point", "coordinates": [79.6866933, 20.1905391]}, "properties": {"name": "Rajoli", "code": 50}}, {"type": "Feature", "geometry": {"type": "Point", "coordinates": [74.52728619999999, 21.4332107]}, "properties": {"name": "SARANGKHEDA", "code": 51}}, {"type": "Feature", "geometry": {"type": "Point", "coordinates": [79.87168369999999, 21.3973776]}, "properties": {"name": "Salebardi", "code": 52}}, {"type": "Feature", "geometry": {"type": "Point", "coordinates": [74.4979866, 16.8675045]}, "properties": {"name": "Samdoli (Seasonal)", "code": 53}}, {"type": "Feature", "geometry": {"type": "Point", "coordinates": [75.0114612, 17.9189515]}, "properties": {"name": "Sarati", "code": 54}}, {"type": "Feature", "geometry": {"type": "Point", "coordinates": [79.70878619999999, 28.2059753]}, "properties": {"name": "Satrapur/K.R.Bridge", "code": 55}}, {"type": "Feature", "geometry": {"type": "Point", "coordinates": [75.3004009, 17.6381472]}, "properties": {"name": "Takli", "code": 56}}, {"type": "Feature", "geometry": {"type": "Point", "coordinates": [75.7138884, 19.7514798]}, "properties": {"name": "Tekra", "code": 57}}, {"type": "Feature", "geometry": {"type": "Point", "coordinates": [74.5785485, 16.6657574]}, "properties": {"name": "Terwad (Seasonal)", "code": 58}}, {"type": "Feature", "geometry": {"type": "Point", "coordinates": [75.0961549, 18.1364287]}, "properties": {"name": "Ujani Dam", "code": 59}}, {"type": "Feature", "geometry": {"type": "Point", "coordinates": [74.06819879999999, 18.1362072]}, "properties": {"name": "Veer Dam", "code": 60}}, {"type": "Feature", "geometry": {"type": "Point", "coordinates": [75.880105, 17.5343877]}, "properties": {"name": "Wadakbal", "code": 61}}, {"type": "Feature", "geometry": {"type": "Point", "coordinates": [80.08637759999999, 20.4347819]}, "properties": {"name": "Wairagarh", "code": 62}}, {"type": "Feature", "geometry": {"type": "Point", "coordinates": [73.8593072, 17.1261096]}, "properties": {"name": "Warna Dam", "code": 63}}, {"type": "Feature", "geometry": {"type": "Point", "coordinates": [74.1621634, 17.2815292]}, "properties": {"name": "Warunji", "code": 64}}, {"type": "Feature", "geometry": {"type": "Point", "coordinates": [79.7680243, 21.4175727]}, "properties": {"name": "YERLI", "code": 65}}, {"type": "Feature", "geometry": {"type": "Point", "coordinates": [76.77157989999999, 19.407202]}, "properties": {"name": "Zari", "code": 66}}]}