[{"lat": 24.4640731, "lon": 72.7717775, "name": "Abu Road", "code": 0}, {"lat": 24.4164292, "lon": 76.56905189999999, "name": "Aklera", "code": 1}, {"lat": 27.0238036, "lon": 74.21793260000001, "name": "Anas PH-II", "code": 2}, {"lat": 27.0238036, "lon": 74.21793260000001, "name": "Baranwada", "code": 3}, {"lat": 25.3869881, "lon": 76.30872819999999, "name": "Barod", "code": 4}, {"lat": 25.2600623, "lon": 75.01000049999999, "name": "Bigod", "code": 5}, {"lat": 25.9246602, "lon": 75.456048, "name": "Bisalpur Dam", "code": 6}, {"lat": 24.8887435, "lon": 74.6269216, "name": "Chittorgarh", "code": 7}, {"lat": 24.1002717, "lon": 74.4437696, "name": "Dhariawad", "code": 8}, {"lat": 26.7025181, "lon": 77.893391, "name": "Dholpur", "code": 9}, {"lat": 25.2600623, "lon": 75.01000049999999, "name": "Duplicate Old Bigod", "code": 10}, {"lat": 24.897132, "lon": 74.6371152, "name": "Gambhiri Dam", "code": 11}, {"lat": 24.4828939, "lon": 76.2234634, "name": "Kalisindh Dam", "code": 12}, {"lat": 25.6816594, "lon": 76.4758975, "name": "Khatoli", "code": 13}, {"lat": 25.1767672, "lon": 75.8257904, "name": "Kota Barrage", "code": 14}, {"lat": 23.627031, "lon": 74.544175, "name": "Mahi Dam", "code": 15}, {"lat": 26.3015862, "lon": 77.2419522, "name": "Manderial", "code": 16}, {"lat": 24.5925909, "lon": 72.7156274, "name": "Mount Abu", "code": 17}, {"lat": 23.7655861, "lon": 74.1210597, "name": "Paderdibadi", "code": 18}, {"lat": 25.7710893, "lon": 73.3234478, "name": "Pali", "code": 19}, {"lat": 26.5627802, "lon": 77.0047724, "name": "Panchana Dam", "code": 20}, {"lat": 26.5050671, "lon": 75.6055322, "name": "Parwan pick-up Weir", "code": 21}, {"lat": 27.0238036, "lon": 74.21793260000001, "name": "Parwati Pick- up weir", "code": 22}, {"lat": 25.1069685, "lon": 74.1929853, "name": "Rangeli", "code": 23}, {"lat": 26.6882727, "lon": 76.634247, "name": "Salavad", "code": 24}, {"lat": 24.9258647, "lon": 76.2855634, "name": "Sangod", "code": 25}, {"lat": 24.7213926, "lon": 73.1971927, "name": "Sei Dam", "code": 26}, {"lat": 23.980866, "lon": 74.031212, "name": "Somkamla Amba Dam", "code": 27}, {"lat": 24.6552948, "lon": 72.9259012, "name": "Swaroopganj", "code": 28}, {"lat": 26.1620402, "lon": 75.7894716, "name": "Tonk", "code": 29}, {"lat": 28.5613512, "lon": 75.2204294, "name": "amarpura", "code": 30}, {"lat": 24.0020823, "lon": 73.64331899999999, "name": "khandiowari", "code": 31}, {"lat": 23.9180782, "lon": 74.7081008, "name": "sohagpura", "code": 32}]