[{"lat": 10.6363701, "lon": 76.954224, "name": "AMBARAMPALAYAM", "code": 0}, {"lat": 12.2237275, "lon": 79.0566685, "name": "ASHRAMAM", "code": 1}, {"lat": 8.709317, "lon": 77.45298679999999, "name": "Ambasamudram", "code": 2}, {"lat": 12.904441, "lon": 79.3191576, "name": "Arcot", "code": 3}, {"lat": 12.6813135, "lon": 78.53378570000001, "name": "Avarankuppam", "code": 4}, {"lat": 12.1983889, "lon": 77.77953699999999, "name": "BILIGUNDULU", "code": 5}, {"lat": 11.4709508, "lon": 77.11428169999999, "name": "Bhavanisagar Dam", "code": 6}, {"lat": 13.3188776, "lon": 79.6260054, "name": "Buggaagraharam", "code": 7}, {"lat": 13.0318628, "lon": 80.03823059999999, "name": "Chembarampakkam", "code": 8}, {"lat": 12.6839952, "lon": 79.9833483, "name": "Chengalpet", "code": 9}, {"lat": 9.6512645, "lon": 78.5575676, "name": "ELUNUTHIMANGALAM", "code": 10}, {"lat": 12.4472006, "lon": 78.0145441, "name": "GUMMANUR", "code": 11}, {"lat": 11.7928361, "lon": 78.8142657, "name": "Gomukhi Dam", "code": 12}, {"lat": 10.9134905, "lon": 79.2873953, "name": "Gopurajapuram", "code": 13}, {"lat": 10.8321013, "lon": 78.8176763, "name": "Grand Anicut", "code": 14}, {"lat": 12.116049, "lon": 77.7774286, "name": "HOGENAKKAL", "code": 15}, {"lat": 9.3329693, "lon": 77.9867127, "name": "IRRUKKANKUDI", "code": 16}, {"lat": 9.3329693, "lon": 77.9867127, "name": "IRRUKKANKUDI", "code": 17}, {"lat": 8.682952199999999, "lon": 77.4650754, "name": "KALLIDAIKURICHIII", "code": 18}, {"lat": 10.6864677, "lon": 77.9699493, "name": "KODAGANAR DAM", "code": 19}, {"lat": 11.0788297, "lon": 77.886746, "name": "KODUMUDI", "code": 20}, {"lat": 8.3128807, "lon": 77.2040677, "name": "KUZHITHURAI", "code": 21}, {"lat": 11.191441, "lon": 78.9217522, "name": "Kalpadai", "code": 22}, {"lat": 12.4775282, "lon": 78.1876588, "name": "Krishnagiri Dam", "code": 23}, {"lat": 11.4157631, "lon": 79.47731519999999, "name": "Kudalaiyathur", "code": 24}, {"lat": 11.1271225, "lon": 78.6568942, "name": "LAKSHMANANPATTI", "code": 25}, {"lat": 11.1429926, "lon": 79.4506788, "name": "Lower Anicut", "code": 26}, {"lat": 12.2268736, "lon": 79.5167829, "name": "MANIYAMPATTU", "code": 27}, {"lat": 13.2161067, "lon": 79.94025599999999, "name": "MONNAVEDU", "code": 28}, {"lat": 8.7170199, "lon": 77.8317251, "name": "MURAPPANADU", "code": 29}, {"lat": 10.9548837, "lon": 78.44393199999999, "name": "MUSIRI", "code": 30}, {"lat": 12.7190896, "lon": 79.7533061, "name": "Magaral", "code": 31}, {"lat": 11.5242073, "lon": 77.6797392, "name": "Mayampadi", "code": 32}, {"lat": 11.1271225, "lon": 78.6568942, "name": "Melkalpoondi", "code": 33}, {"lat": 10.9445691, "lon": 79.7035265, "name": "Menangudi", "code": 34}, {"lat": 11.8037584, "lon": 77.8074214, "name": "Mettur Dam", "code": 35}, {"lat": 11.1271225, "lon": 78.6568942, "name": "NALLAMARANPATTY", "code": 36}, {"lat": 11.2832606, "lon": 76.8850673, "name": "NELLITHURAI", "code": 37}, {"lat": 9.5483949, "lon": 78.5916335, "name": "PARAMAKUDI", "code": 38}, {"lat": 11.1271225, "lon": 78.6568942, "name": "Panneswaram Madam", "code": 39}, {"lat": 10.9612134, "lon": 79.66003429999999, "name": "Peralam", "code": 40}, {"lat": 13.1857721, "lon": 79.85768279999999, "name": "Poondi Satyamoorthy Reservoir", "code": 41}, {"lat": 10.9063627, "lon": 79.707033, "name": "Porakudi", "code": 42}, {"lat": 11.9546289, "lon": 79.5287291, "name": "Poyyapakkam", "code": 43}, {"lat": 10.2823733, "lon": 78.07149869999999, "name": "SANARPATTI", "code": 44}, {"lat": 11.5199579, "lon": 77.50819419999999, "name": "SAVANDAPUR", "code": 45}, {"lat": 11.2649648, "lon": 79.3180366, "name": "SEVANUR", "code": 46}, {"lat": 12.1833553, "lon": 78.8504219, "name": "Sathanur Dam", "code": 47}, {"lat": 11.5682323, "lon": 76.9264939, "name": "THENGUMARAHADA", "code": 48}, {"lat": 9.932983199999999, "lon": 77.4701972, "name": "THENI", "code": 49}, {"lat": 11.7652429, "lon": 79.40849279999999, "name": "THIRUNAVALUR", "code": 50}, {"lat": 11.9398568, "lon": 78.0580609, "name": "THOPPUR", "code": 51}, {"lat": 9.5499669, "lon": 78.807115, "name": "Thengudi", "code": 52}, {"lat": 13.1286632, "lon": 79.7820394, "name": "Thiruvalngadu", "code": 53}, {"lat": 11.1429926, "lon": 79.4506788, "name": "UPPER ANICUT", "code": 54}, {"lat": 11.5385126, "lon": 77.5827175, "name": "URACHIKOTTAI", "code": 55}, {"lat": 11.4024151, "lon": 78.92599550000001, "name": "V.Kalathur", "code": 56}, {"lat": 10.4402142, "lon": 78.0968911, "name": "VADAMADURAI", "code": 57}, {"lat": 10.0536491, "lon": 77.5897086, "name": "VAIGAI DAM", "code": 58}, {"lat": 12.0723706, "lon": 78.9882083, "name": "Vazhavachanur", "code": 59}, {"lat": 11.4475367, "lon": 79.0284839, "name": "Venganur", "code": 60}, {"lat": 11.9368897, "lon": 79.4872619, "name": "Villupuram", "code": 61}, {"lat": 11.4282719, "lon": 79.09274839999999, "name": "Wellington Reservoir", "code": 62}]