{"type": "FeatureCollection", "features": [{"type": "Feature", "geometry": {"type": "Point", "coordinates": [76.954224, 10.6363701]}, "properties": {"name": "AMBARAMPALAYAM", "code": 0}}, {"type": "Feature", "geometry": {"type": "Point", "coordinates": [79.0566685, 12.2237275]}, "properties": {"name": "ASHRAMAM", "code": 1}}, {"type": "Feature", "geometry": {"type": "Point", "coordinates": [77.45298679999999, 8.709317]}, "properties": {"name": "Ambasamudram", "code": 2}}, {"type": "Feature", "geometry": {"type": "Point", "coordinates": [79.3191576, 12.904441]}, "properties": {"name": "Arcot", "code": 3}}, {"type": "Feature", "geometry": {"type": "Point", "coordinates": [78.53378570000001, 12.6813135]}, "properties": {"name": "Avarankuppam", "code": 4}}, {"type": "Feature", "geometry": {"type": "Point", "coordinates": [77.77953699999999, 12.1983889]}, "properties": {"name": "BILIGUNDULU", "code": 5}}, {"type": "Feature", "geometry": {"type": "Point", "coordinates": [77.11428169999999, 11.4709508]}, "properties": {"name": "Bhavanisagar Dam", "code": 6}}, {"type": "Feature", "geometry": {"type": "Point", "coordinates": [79.6260054, 13.3188776]}, "properties": {"name": "Buggaagraharam", "code": 7}}, {"type": "Feature", "geometry": {"type": "Point", "coordinates": [80.03823059999999, 13.0318628]}, "properties": {"name": "Chembarampakkam", "code": 8}}, {"type": "Feature", "geometry": {"type": "Point", "coordinates": [79.9833483, 12.6839952]}, "properties": {"name": "Chengalpet", "code": 9}}, {"type": "Feature", "geometry": {"type": "Point", "coordinates": [78.5575676, 9.6512645]}, "properties": {"name": "ELUNUTHIMANGALAM", "code": 10}}, {"type": "Feature", "geometry": {"type": "Point", "coordinates": [78.0145441, 12.4472006]}, "properties": {"name": "GUMMANUR", "code": 11}}, {"type": "Feature", "geometry": {"type": "Point", "coordinates": [78.8142657, 11.7928361]}, "properties": {"name": "Gomukhi Dam", "code": 12}}, {"type": "Feature", "geometry": {"type": "Point", "coordinates": [79.2873953, 10.9134905]}, "properties": {"name": "Gopurajapuram", "code": 13}}, {"type": "Feature", "geometry": {"type": "Point", "coordinates": [78.8176763, 10.8321013]}, "properties": {"name": "Grand Anicut", "code": 14}}, {"type": "Feature", "geometry": {"type": "Point", "coordinates": [77.7774286, 12.116049]}, "properties": {"name": "HOGENAKKAL", "code": 15}}, {"type": "Feature", "geometry": {"type": "Point", "coordinates": [77.9867127, 9.3329693]}, "properties": {"name": "IRRUKKANKUDI", "code": 16}}, {"type": "Feature", "geometry": {"type": "Point", "coordinates": [77.9867127, 9.3329693]}, "properties": {"name": "IRRUKKANKUDI", "code": 17}}, {"type": "Feature", "geometry": {"type": "Point", "coordinates": [77.4650754, 8.682952199999999]}, "properties": {"name": "KALLIDAIKURICHIII", "code": 18}}, {"type": "Feature", "geometry": {"type": "Point", "coordinates": [77.9699493, 10.6864677]}, "properties": {"name": "KODAGANAR DAM", "code": 19}}, {"type": "Feature", "geometry": {"type": "Point", "coordinates": [77.886746, 11.0788297]}, "properties": {"name": "KODUMUDI", "code": 20}}, {"type": "Feature", "geometry": {"type": "Point", "coordinates": [77.2040677, 8.3128807]}, "properties": {"name": "KUZHITHURAI", "code": 21}}, {"type": "Feature", "geometry": {"type": "Point", "coordinates": [78.9217522, 11.191441]}, "properties": {"name": "Kalpadai", "code": 22}}, {"type": "Feature", "geometry": {"type": "Point", "coordinates": [78.1876588, 12.4775282]}, "properties": {"name": "Krishnagiri Dam", "code": 23}}, {"type": "Feature", "geometry": {"type": "Point", "coordinates": [79.47731519999999, 11.4157631]}, "properties": {"name": "Kudalaiyathur", "code": 24}}, {"type": "Feature", "geometry": {"type": "Point", "coordinates": [78.6568942, 11.1271225]}, "properties": {"name": "LAKSHMANANPATTI", "code": 25}}, {"type": "Feature", "geometry": {"type": "Point", "coordinates": [79.4506788, 11.1429926]}, "properties": {"name": "Lower Anicut", "code": 26}}, {"type": "Feature", "geometry": {"type": "Point", "coordinates": [79.5167829, 12.2268736]}, "properties": {"name": "MANIYAMPATTU", "code": 27}}, {"type": "Feature", "geometry": {"type": "Point", "coordinates": [79.94025599999999, 13.2161067]}, "properties": {"name": "MONNAVEDU", "code": 28}}, {"type": "Feature", "geometry": {"type": "Point", "coordinates": [77.8317251, 8.7170199]}, "properties": {"name": "MURAPPANADU", "code": 29}}, {"type": "Feature", "geometry": {"type": "Point", "coordinates": [78.44393199999999, 10.9548837]}, "properties": {"name": "MUSIRI", "code": 30}}, {"type": "Feature", "geometry": {"type": "Point", "coordinates": [79.7533061, 12.7190896]}, "properties": {"name": "Magaral", "code": 31}}, {"type": "Feature", "geometry": {"type": "Point", "coordinates": [77.6797392, 11.5242073]}, "properties": {"name": "Mayampadi", "code": 32}}, {"type": "Feature", "geometry": {"type": "Point", "coordinates": [78.6568942, 11.1271225]}, "properties": {"name": "Melkalpoondi", "code": 33}}, {"type": "Feature", "geometry": {"type": "Point", "coordinates": [79.7035265, 10.9445691]}, "properties": {"name": "Menangudi", "code": 34}}, {"type": "Feature", "geometry": {"type": "Point", "coordinates": [77.8074214, 11.8037584]}, "properties": {"name": "Mettur Dam", "code": 35}}, {"type": "Feature", "geometry": {"type": "Point", "coordinates": [78.6568942, 11.1271225]}, "properties": {"name": "NALLAMARANPATTY", "code": 36}}, {"type": "Feature", "geometry": {"type": "Point", "coordinates": [76.8850673, 11.2832606]}, "properties": {"name": "NELLITHURAI", "code": 37}}, {"type": "Feature", "geometry": {"type": "Point", "coordinates": [78.5916335, 9.5483949]}, "properties": {"name": "PARAMAKUDI", "code": 38}}, {"type": "Feature", "geometry": {"type": "Point", "coordinates": [78.6568942, 11.1271225]}, "properties": {"name": "Panneswaram Madam", "code": 39}}, {"type": "Feature", "geometry": {"type": "Point", "coordinates": [79.66003429999999, 10.9612134]}, "properties": {"name": "Peralam", "code": 40}}, {"type": "Feature", "geometry": {"type": "Point", "coordinates": [79.85768279999999, 13.1857721]}, "properties": {"name": "Poondi Satyamoorthy Reservoir", "code": 41}}, {"type": "Feature", "geometry": {"type": "Point", "coordinates": [79.707033, 10.9063627]}, "properties": {"name": "Porakudi", "code": 42}}, {"type": "Feature", "geometry": {"type": "Point", "coordinates": [79.5287291, 11.9546289]}, "properties": {"name": "Poyyapakkam", "code": 43}}, {"type": "Feature", "geometry": {"type": "Point", "coordinates": [78.07149869999999, 10.2823733]}, "properties": {"name": "SANARPATTI", "code": 44}}, {"type": "Feature", "geometry": {"type": "Point", "coordinates": [77.50819419999999, 11.5199579]}, "properties": {"name": "SAVANDAPUR", "code": 45}}, {"type": "Feature", "geometry": {"type": "Point", "coordinates": [79.3180366, 11.2649648]}, "properties": {"name": "SEVANUR", "code": 46}}, {"type": "Feature", "geometry": {"type": "Point", "coordinates": [78.8504219, 12.1833553]}, "properties": {"name": "Sathanur Dam", "code": 47}}, {"type": "Feature", "geometry": {"type": "Point", "coordinates": [76.9264939, 11.5682323]}, "properties": {"name": "THENGUMARAHADA", "code": 48}}, {"type": "Feature", "geometry": {"type": "Point", "coordinates": [77.4701972, 9.932983199999999]}, "properties": {"name": "THENI", "code": 49}}, {"type": "Feature", "geometry": {"type": "Point", "coordinates": [79.40849279999999, 11.7652429]}, "properties": {"name": "THIRUNAVALUR", "code": 50}}, {"type": "Feature", "geometry": {"type": "Point", "coordinates": [78.0580609, 11.9398568]}, "properties": {"name": "THOPPUR", "code": 51}}, {"type": "Feature", "geometry": {"type": "Point", "coordinates": [78.807115, 9.5499669]}, "properties": {"name": "Thengudi", "code": 52}}, {"type": "Feature", "geometry": {"type": "Point", "coordinates": [79.7820394, 13.1286632]}, "properties": {"name": "Thiruvalngadu", "code": 53}}, {"type": "Feature", "geometry": {"type": "Point", "coordinates": [79.4506788, 11.1429926]}, "properties": {"name": "UPPER ANICUT", "code": 54}}, {"type": "Feature", "geometry": {"type": "Point", "coordinates": [77.5827175, 11.5385126]}, "properties": {"name": "URACHIKOTTAI", "code": 55}}, {"type": "Feature", "geometry": {"type": "Point", "coordinates": [78.92599550000001, 11.4024151]}, "properties": {"name": "V.Kalathur", "code": 56}}, {"type": "Feature", "geometry": {"type": "Point", "coordinates": [78.0968911, 10.4402142]}, "properties": {"name": "VADAMADURAI", "code": 57}}, {"type": "Feature", "geometry": {"type": "Point", "coordinates": [77.5897086, 10.0536491]}, "properties": {"name": "VAIGAI DAM", "code": 58}}, {"type": "Feature", "geometry": {"type": "Point", "coordinates": [78.9882083, 12.0723706]}, "properties": {"name": "Vazhavachanur", "code": 59}}, {"type": "Feature", "geometry": {"type": "Point", "coordinates": [79.0284839, 11.4475367]}, "properties": {"name": "Venganur", "code": 60}}, {"type": "Feature", "geometry": {"type": "Point", "coordinates": [79.4872619, 11.9368897]}, "properties": {"name": "Villupuram", "code": 61}}, {"type": "Feature", "geometry": {"type": "Point", "coordinates": [79.09274839999999, 11.4282719]}, "properties": {"name": "Wellington Reservoir", "code": 62}}]}