[{"lat": 22.9867569, "lon": 87.8549755, "name": "BEDEPARA", "code": 0}, {"lat": 26.46794, "lon": 89.8048352, "name": "Barabisha", "code": 1}, {"lat": 26.9737355, "lon": 88.6991109, "name": "CHEL", "code": 2}, {"lat": 26.9028909, "lon": 88.4732973, "name": "CORONATION", "code": 3}, {"lat": 26.7467379, "lon": 88.4161523, "name": "Champasari", "code": 4}, {"lat": 22.9867569, "lon": 87.8549755, "name": "Chepan", "code": 5}, {"lat": 22.9867569, "lon": 87.8549755, "name": "D P Ghat", "code": 6}, {"lat": 22.5721537, "lon": 88.3513055, "name": "DIANA", "code": 7}, {"lat": 23.7556031, "lon": 87.02494399999999, "name": "DOMOHANI", "code": 8}, {"lat": 23.4800684, "lon": 87.3060957, "name": "Durgapur Barrage", "code": 9}, {"lat": 24.7828022, "lon": 87.9040571, "name": "Farakka(FF)", "code": 10}, {"lat": 22.3068848, "lon": 86.9125414, "name": "Fekoghat", "code": 11}, {"lat": 23.2093245, "lon": 88.1547547, "name": "GHISH", "code": 12}, {"lat": 26.6806806, "lon": 88.5572827, "name": "Gazoldoba", "code": 13}, {"lat": 23.6258777, "lon": 87.70371349999999, "name": "Gheropara", "code": 14}, {"lat": 26.3337117, "lon": 89.328625, "name": "Ghugumari", "code": 15}, {"lat": 22.2059482, "lon": 86.89477889999999, "name": "Gopiballavpur", "code": 16}, {"lat": 22.0058017, "lon": 88.27288209999999, "name": "Harinkhola", "code": 17}, {"lat": 26.7308712, "lon": 89.35064229999999, "name": "Hasimara", "code": 18}, {"lat": 23.8277985, "lon": 87.19404469999999, "name": "Hinglow Dam", "code": 19}, {"lat": 26.572197, "lon": 88.9428829, "name": "Jaldhaka NH-31", "code": 20}, {"lat": 23.061089, "lon": 87.9925839, "name": "Jamalpur", "code": 21}, {"lat": 22.04696, "lon": 88.06025389999999, "name": "KHARIDWAR", "code": 22}, {"lat": 22.9643837, "lon": 86.7888155, "name": "Kangsabati Dam", "code": 23}, {"lat": 22.5839713, "lon": 87.04993530000002, "name": "Lalgarh", "code": 24}, {"lat": 26.8405337, "lon": 88.82510010000001, "name": "MURTI", "code": 25}, {"lat": 26.3427291, "lon": 89.21533629999999, "name": "Mathabhanga", "code": 26}, {"lat": 26.3473882, "lon": 88.9102489, "name": "Mekhliganj", "code": 27}, {"lat": 21.8398171, "lon": 87.4232306, "name": "Mohanpur", "code": 28}, {"lat": 26.7411071, "lon": 88.73737129999999, "name": "NEORA", "code": 29}, {"lat": 26.8809465, "lon": 88.90785269999999, "name": "Nagrakata", "code": 30}, {"lat": 25.0640499, "lon": 87.8721602, "name": "Narayanpur", "code": 31}, {"lat": 22.4275344, "lon": 88.3547646, "name": "Natunhat", "code": 32}, {"lat": 23.3386414, "lon": 87.2307309, "name": "Phulberia", "code": 33}, {"lat": 22.9867569, "lon": 87.8549755, "name": "Purihansha", "code": 34}, {"lat": 26.3100825, "lon": 89.8294313, "name": "SANKOSH LRP", "code": 35}, {"lat": 26.8901867, "lon": 88.4730853, "name": "SEVOKE", "code": 36}, {"lat": 22.9867569, "lon": 87.8549755, "name": "Sikatia Barrage", "code": 37}, {"lat": 23.3028808, "lon": 86.3516167, "name": "Simulia", "code": 38}, {"lat": 27.1253408, "lon": 88.287666, "name": "Singlabazar", "code": 39}, {"lat": 26.4352427, "lon": 88.2586635, "name": "Sonapur", "code": 40}, {"lat": 23.6874028, "lon": 86.73660819999999, "name": "TANTLOI", "code": 41}, {"lat": 27.0662177, "lon": 88.4246364, "name": "TEESTA BAZAR", "code": 42}, {"lat": 23.9484697, "lon": 87.51237970000001, "name": "Tilpara  Mihirlal Barrage", "code": 43}, {"lat": 26.3304643, "lon": 89.6675144, "name": "Tufanganj", "code": 44}, {"lat": 22.9867569, "lon": 87.8549755, "name": "Tusuma", "code": 45}]